{
  "talks": [
    {
      "date": "2020-09-08",
      "title": "Lennard-Jones熱伝導系における気液転移",
      "author": "湯川諭, 中川尚子, 佐々真一",
      "venue": "zoom",
      "location": "大阪府豊中市",
      "latitude": 34.8034727,
      "longitude": 135.455291,
      "description": "日本物理学会 2020年秋季大会"
    },   
    {
      "date": "2020-09-10",
      "title": "球殻の膨張破壊における統計的性質",
      "author": "藤倉雅人, 湯川諭",
      "venue": "zoom",
      "location": "大阪府豊中市",
      "latitude": 34.8034727,
      "longitude": 135.455291,
      "description": "日本物理学会 2020年秋季大会"
    },   
    {
      "date": "2020-03-17",
      "title": "侵食による河川成長モデルによる乾燥度と分岐角度の相関",
      "author": "高谷慧, 渡辺壮流, 湯川諭",
      "venue": "名古屋大学",
      "location": "愛知県名古屋市千種区",
      "latitude": 35.153491,
      "longitude": 136.967573,
      "description": "日本物理学会 第75回年次大会"
    },

    {
      "date": "2020-03-17",
      "title": "流路の非線形成長モデルにおける特徴的な合流角度について",
      "author": "渡辺壮流, 高谷慧, 湯川諭",
      "venue": "名古屋大学",
      "location": "愛知県名古屋市千種区",
      "latitude": 35.153491,
      "longitude": 136.967573,
      "description": "日本物理学会 第75回年次大会"
    },
    {
      "date": "2020-03-19",
      "title": "連続空間上における「集団追跡と逃避」",
      "author": "西江章浩, 湯川諭",
      "venue": "名古屋大学",
      "location": "愛知県名古屋市千種区",
      "latitude": 35.153491,
      "longitude": 136.967573,
      "description": "日本物理学会 第75回年次大会"
    },
    
    {
      "date": "2019-12-06",
      "title": "連続空間における集団追跡と逃避　〜粒子更新ルールによる違い〜",
      "author": "西江章浩, 湯川諭",
      "venue": "名古屋大学",
      "location": "愛知県名古屋市千種区",
      "latitude": 35.153491,
      "longitude": 136.967573,
      "description": "第25回交通流と自己駆動粒子系のシンポジウム"
    },
    
    
    {
      "date": "2019-09-13",
      "title": "Cellular Braided-stream model による河川成長、及びその分岐角度分布",
      "author": "高谷慧, 渡辺壮流, 湯川諭",
      "venue": "岐阜大学柳戸キャンパス",
      "location": "岐阜市柳戸1-1",
      "latitude": 35.4651262,
      "longitude":136.7376306,
      "description": "日本物理学会 2019年秋季大会"
    },

    {
      "date": "2019-09-12",
      "title": "河川ネットワークにおける分岐角度分布",
      "author": "湯川諭",
      "venue": "岐阜大学柳戸キャンパス",
      "location": "岐阜市柳戸1-1",
      "latitude": 35.4651262,
      "longitude":136.7376306,
      "description": "日本物理学会 2019年秋季大会"
    },






    {
      "date": "2019-03-16",
      "title": "Cellular Braided-stream model による河川成長、及びその分岐角度分布",
      "author": "高谷慧, 渡辺壮流, 湯川諭",
      "venue": "九州大学伊都キャンパス",
      "location": "福岡市西区元岡744",
      "latitude": 33.5974436,
      "longitude":130.2213617,
      "description": "日本物理学会 第74回年次大会"
    },


    {
      "date": "2019-03-17",
      "title": "流路の樹状ネットワークの自己組織化モデルにおける合流角度について",
      "author": "渡辺壮流, 高谷慧, 湯川諭",
      "venue": "九州大学伊都キャンパス",
      "location": "福岡市西区元岡744",
      "latitude": 33.5974436,
      "longitude":130.2213617,
      "description": "日本物理学会 第74回年次大会"
    },



    {
      "date": "2018-12-14",
      "title": "Morphological properties of surface crack patterns due to volumetric shrinkage",
      "author": "Shin-ichi Ito, and Satoshi Yukawa",
      "venue": "Walter E Washington Convention Center - Hall A-C",
      "location": "Washington, D.C., USA",
      "latitude": 38.9048838,
      "longitude": -77.0251821,
      "description": "2018 AGU Fall Meeting"
    },


    {
      "date": "2008-02-20",
      "title": "Energy Flux Distribution",
      "author": "Nobuyasu Ito, Fumiko Ogushi, Takashi Shimada, and Satoshi Yukawa",
      "venue": "University of Georgia",
      "location": "Athens, USA",
      "latitude": 33.9480053,
      "longitude":-83.3795161,
      "description": "21th Workshop Recent Developments in Computer Simulation Studies in Condensed Matter Physics"
    },



    {
      "date": "2006-02-20",
      "title": "Rate Constant in far-from-equilibrium open systems",
      "author": "Atsushi Kamimura, Satoshi Yukawa and Nobuyasu Ito",
      "venue": "University of Georgia",
      "location": "Athens, USA",
      "latitude": 33.9480053,
      "longitude":-83.3795161,
      "description": "19th Workshop Recent Developments in Computer Simulation Studies in Condensed Matter Physics"
    },


    {
      "date": "2006-02-20",
      "title": "Structure of Gas-Liquid Phase Interface",
      "author": "Fumiko Ogushi, Satoshi Yukawa and Nobuyasu Ito",
      "venue": "University of Georgia",
      "location": "Athens, USA",
      "latitude": 33.9480053,
      "longitude":-83.3795161,
      "description": "19th Workshop Recent Developments in Computer Simulation Studies in Condensed Matter Physics"
    },



    {
      "date": "2006-02-20",
      "title": "Attraction-limited cluster-cluster aggregation of Ising dipolar particles",
      "author": "Naoki Yoshioka, Imre Varga, Ferenc Kun, Satoshi Yukawa and Nobuyasu Ito",
      "venue": "University of Georgia",
      "location": "Athens, USA",
      "latitude": 33.9480053,
      "longitude":-83.3795161,
      "description": "19th Workshop Recent Developments in Computer Simulation Studies in Condensed Matter Physics"
    },













    {
      "date": "2005-02-20",
      "title": "Simulation Study of Gas-Liquid Interface",
      "author": "Fumiko Ogushi, Satoshi Yukawa and Nobuyasu Ito",
      "venue": "University of Georgia",
      "location": "Athens, USA",
      "latitude": 33.9480053,
      "longitude":-83.3795161,
      "description": "18th Workshop Recent Developments in Computer Simulation Studies in Condensed Matter Physics"
    },

    {
      "date": "2005-02-20",
      "title": "Size Dispersity Effects on the Two-Dimensional Melting",
      "author": "Hiroshi Watanabe, Satoshi Yukawa, and Nobuyasu Ito",
      "venue": "University of Georgia",
      "location": "Athens, USA",
      "latitude": 33.9480053,
      "longitude":-83.3795161,
      "description": "18th Workshop Recent Developments in Computer Simulation Studies in Condensed Matter Physics"
    },












    {
      "date": "2004-02-20",
      "title": "A New Method of Investigating Equilibrium Properties from Nonequilibrium Work",
      "author": "Satoshi Yukawa",
      "venue": "University of Georgia",
      "location": "Athens, USA",
      "latitude": 33.9480053,
      "longitude":-83.3795161,
      "description": "17th Workshop Recent Developments in Computer Simulation Studies in Condensed Matter Physics"
    },









    {
      "date": "2003-02-20",
      "title": "Quantum Computing Simulation Using the Auxiliary Field Decomposition",
      "author": "Hans-Georg Matuttis, Kurt Fischer, Satoshi Yukawa and Nobuyasu Ito",
      "venue": "University of Georgia",
      "location": "Athens, USA",
      "latitude": 33.9480053,
      "longitude":-83.3795161,
      "description": "16th Workshop Recent Developments in Computer Simulation Studies in Condensed Matter Physics"
    },
    {
      "date": "2003-02-20",
      "title": "Non-equilibrium Relaxaton Analysis on Two-dimensional Melting",
      "author": "Hiroshi Watanabe, Satoshi Yukawa, Yukiyasu Ozeki and Nobuyasu Ito",
      "venue": "University of Georgia",
      "location": "Athens, USA",
      "latitude": 33.9480053,
      "longitude":-83.3795161,
      "description": "16th Workshop Recent Developments in Computer Simulation Studies in Condensed Matter Physics"
    },











    {
      "date": "2001-02-20",
      "title": "Non-equilibrium Energy Transport in Multiphase System",
      "author": "Teruyoshi Murakami, Satoshi Yukawa and Nobuyasu Ito",
      "venue": "University of Georgia",
      "location": "Athens, USA",
      "latitude": 33.9480053,
      "longitude":-83.3795161,
      "description": "14th Workshop Recent Developments in Computer Simulation Studies in Condensed Matter Physics"
    },




    
    {
      "date": "2009-11-04",
      "title": "Fragmentation in Oblique Impacts",
      "author": "Satoshi Yukawa",
      "venue": "Debrecen",
      "location": "Debrecen, Hungary",
      "latitude": 47.5436831,
      "longitude":21.6229769,
      "description": "1st Debrecen workshop on statistical physics of fracture and other complex systems"
    },






















    
    {
      "date": "2013-07-22-26",
      "title": "Dynamical scaling law of fragment distribution in drying crack pattern",
      "author": "Shin-ichi Ito and Satoshi Yukawa",
      "venue": "Seoul National University",
      "location": "Seoul, Korea",
      "latitude": 37.4598564,
      "longitude": 126.9525651,
      "description": "STATPHYS 25 "
    },




    
    {
      "date": "2012-10-29-31",
      "title": "Stochastic modeling for dynamical scaling law of dryning crack pattern",
      "author": "Shin-ichi Ito and Satoshi Yukawa",
      "venue": "Tottori Univ",
      "location": "Tottori, Japan",
      "latitude": 35.516421,
      "longitude": 134.1726687,
      "description": "Nonlinear Workshop in Tottori 2012"
    },


    
    

    




    {
      "date": "2013-12-17-18",
      "title": "Dynamical scaling of fragment distribution in drying crack pattern",
      "author": "Shin-ichi Ito and Satoshi Yukawa",
      "venue": "Osaka Univ.",
      "location": "Osaka, Japan",
      "latitude": 34.8034727,
      "longitude": 135.455291,
      "description": "International Symposium on Research Frontiers of Physics, Earth and Space Science"
    },   

    
    {
      "date": "2009-08-12",
      "title": "Nonequilibrium Distribution of Microscopic Thermal Current in Steady Thermal Transport Systems",
      "author": "Satoshi Yukawa",
      "venue": "Kyoto Univ.",
      "location": "Kyoto, Japan",
      "latitude": 35.0308115,
      "longitude": 135.7855329,
      "description": "YKIS 2009, Frontiers in Nonequilibrium Physics: Fundamental Theory, Glassy & Granular Materials, and Computational Physics"
    },


    





    
    {
      "date": "2013-07-16-19",
      "title": "Dynamical scaling law of fragment distribution in drying crack pattern",
      "author": "Shin-ichi Ito and Satoshi Yukawa",
      "venue": "Kyoto Univ.",
      "location": "Kyoto, Japan",
      "latitude": 35.0308115,
      "longitude": 135.7855329,
      "description": "Physics of glassy and granular materials, Satellite meeting of STATPHYS 25"
    },

    {
      "date": "2012-10-24-25",
      "title": "Nonequilibrium Dynamics of Grain Boundary",
      "author": "Satoshi Yukawa and Atsuhi Yamamoto",
      "venue": "Hakone",
      "location": "Hakone, Japan",
            "latitude": 35.2529829,
      "longitude": 139.0438603,
      "description": "Hakone Workshop on Crack Formation 2012"
    },

    {
      "date": "2011-10-13",
      "title": "Simulation of drying fractures by SPH and their statistical properties",
      "author": "Shin-ichi Ito and Satoshi Yukawa",
      "venue": "Nara Women's University",
      "location": "Nara, Japan",
      "latitude": 34.6879094,
      "longitude":135.826303,
      "description": "Nara Workshop on Fracture and Related Topics"
    },

    
    {
      "date": "2018-03-05-09",
      "title": "Statistical Modeling for Desiccation Cracking Based on Shape-Dependent Fragmentation Process",
      "author": "Shin-ichi Ito , Satoshi Yukawa",
      "venue": "Los Angeles",
      "location": "Los Angeles, California",
      "latitude": 34.0507017,
      "longitude": -118.4189996,
      "description": "APS March Meeting 2018"
    },
    {
      "date": "2016-12-07-08",
      "title": "Statistical properties of the drainage network in Japan",
      "author": "Satoshi Yukawa and Kenji Hara",
      "venue": "Nara Women's University",
      "location": "Nara, Japan",
      "latitude": 34.6879094,
      "longitude":135.826303,
      "description": "Nara Workshop on Nonlinear Dynamics 2016 Dec. under HAS-JSPS Joint Research Project"
    },

    {
      "date": "2016-05-04-05",
      "title": "A fiber-bundle-like model for the desiccation crack",
      "author": "Satoshi Yukawa",
      "venue": "Debrecen",
      "location": "Debrecen, Hungary",
      "latitude": 47.5436831,
      "longitude":21.6229769,
      "description": "7th Hungary-Japan Bilateral Workshop on Statistical Physics of Breakdown Phenomena"
    },

    {
      "date": "2016-01-04-08",
      "title": "Smoothed particle hydrodynamics modeling for desiccation crack pattern",
      "author": "Satoshi Yukawa",
      "venue": "Debrecen",
      "location": "Debrecen, Hungary",
      "latitude": 47.5436831,
      "longitude":21.6229769,
      "description": "6th Hungary-Japan Bilateral Workshop on Statistical Physics of Breakdown Phenomena"
    },



    {
      "date": "2013-09-09-12",
      "title": "Stochastic modeling for dynamical scaling law in fragment size distribution",
      "author": "Satoshi Yukawa and Shin-ichi Ito",
      "venue": "Debrecen",
      "location": "Debrecen, Hungary",
      "latitude": 47.5436831,
      "longitude":21.6229769,
      "description": "5th Hungary-Japan Bilateral Workshop on Statistical Physics of Breakdown Phenomena"
    },

    {
      "date": "2010-09-09-10",
      "title": "Fracture caused by rapid volume contraction",
      "author": "Satoshi Yukawa",
      "venue": "Debrecen",
      "location": "Debrecen, Hungary",
      "latitude": 47.5436831,
      "longitude":21.6229769,
      "description": "2nd Debrecen workshop on statistical physics of fracture and other complex systems"
    },
    {
      "date": "2011-09-08-11",
      "title": "Fracture caused by volume contraction",
      "author": "Satoshi Yukawa",
      "venue": "Keszthely",
      "location": "Keszthely, Hungary",
      "latitude": 46.76193,
      "longitude":17.2476974,
      "description": "3rd Workshop on the statistical physics of fracture and related problems"
    },
    {
      "date": "2011-09-08-11",
      "title": "Disorder and size effect on the critical stress of materials",
      "author": "Atsushi Yamamoto and Satoshi Yukawa",
      "venue": "Keszthely",
      "location": "Keszthely, Hungary",
      "latitude": 46.76193,
      "longitude":17.2476974,
      "description": "3rd Workshop on the statistical physics of fracture and related problems"
    },



    
    {
      "date": "2017-12-04",
      "title": "生態系ネットワークモデルの侵入種数に対する構造の安定性",
      "author": " 池田光夢、湯川諭",
      "venue": "名古屋大学",
      "location": "愛知県名古屋市千種区",
      "latitude": 35.153491,
      "longitude": 136.967573,
      "description": "第23回交通流のシミュレーションシンポジウム"
    },
    {
      "date": "2011-12-09",
      "title": "近接次数に依存した相互作用を持つ群れモデルのシミュレーション",
      "author": "佐光政人、湯川諭",
      "venue": "名古屋大学",
      "location": "愛知県名古屋市千種区",
      "latitude": 35.153491,
      "longitude": 136.967573,
      "description": "第17回交通流のシミュレーションシンポジウム"
    },
    {
      "date": "2011-11-04",
      "title": "SPH法を用いた乾燥破壊シミュレーションとその統計的性質",
      "author": "伊藤伸一、湯川諭",
      "venue": "京都大学",
      "location": "京都府京都市左京区",
      "latitude": 35.0308115,
      "longitude": 135.7855329,
      "description": "RIAM研究集会「地形のダイナミクスとパターンとその境界領域」"
    },
    {
      "date": "2011-08-18-20",
      "title": "構造ガラスにおけるエイジング効果のMDシミュレーション",
      "author": "岡村 諭、吉野元、湯川諭",
      "venue": "京都大学",
      "location": "京都府京都市左京区",
      "latitude": 35.0308115,
      "longitude": 135.7855329,
      "description": "基研研究会2011「非平衡の物理 -ミクロとマクロの架け橋-」"
    },
    {
      "date": "2011-08-18-20",
      "title": "SPH法を用いた乾燥破壊シミュレーションとその統計的性質について",
      "author": "伊藤 伸一、湯川諭 ",
      "venue": "京都大学",
      "location": "京都府京都市左京区",
      "latitude": 35.0308115,
      "longitude": 135.7855329,
      "description": "基研研究会2011「非平衡の物理 -ミクロとマクロの架け橋-」"
    },
    {
      "date": "2011-08-18-20",
      "title": "体積収縮による破壊",
      "author": "湯川 諭",
      "venue": "京都大学",
      "location": "京都府京都市左京区",
      "latitude": 35.0308115,
      "longitude": 135.7855329,
      "description": "基研研究会2011「非平衡の物理 -ミクロとマクロの架け橋-」"
    },
    {
      "date": "2011-06-16",
      "title": "SPH法を用いた乾燥破壊シミュレーションとその統計的性質",
      "author": "伊藤伸一、湯川諭",
      "venue": "日本大学",
      "location": "千葉県船橋市",
      "latitude": 35.726208,
      "longitude": 140.0586,
      "description": "日大塑性研究会"
    },
    {
      "date": "2007-12-06-07",
      "title": "交通流渋滞実験の詳細データ",
      "author": "中山章宏、福井稔、長谷部勝也、菊池誠、西成活裕、杉山雄規、只木進一、湯川諭",
      "venue": "名古屋大学",
      "location": "愛知県名古屋市千種区",
      "latitude": 35.153491,
      "longitude": 136.967573,
      "description": "第13回交通流のシミュレーションシンポジウム"
    },
    {

      "date": "2007-12-06-07",
      "title": "Creutzのセルオートマトンを用いた2次元Isingモデルによる界面系の熱伝導計算",
      "author": "原野和也、湯川諭",
      "venue": "名古屋大学",
      "location": "愛知県名古屋市千種区",
      "latitude": 35.153491,
      "longitude": 136.967573,
      "description": "第13回交通流のシミュレーションシンポジウム"
    },
    {

      "date": "2007-12-06-07",
      "title": "多分散系の摩擦シミュレーション",
      "author": "上田光生、湯川諭",
      "venue": "名古屋大学",
      "location": "愛知県名古屋市千種区",
      "latitude": 35.153491,
      "longitude": 136.967573,
      "description": "第13回交通流のシミュレーションシンポジウム"
    },
    {

      "date": "2007-11-01-02",
      "title": "粒子シミュレーションによる非平衡現象へのアプローチ",
      "author": "湯川諭",
      "venue": "東京大学",
      "location": "千葉県柏市",
      "latitude": 35.9014411,
      "longitude": 139.9363916,
      "description": "物性研短期研究会「計算物理学の進展」"
    },
    {
      "date": "2006-12-25-27",
      "title": "分子動力学法による多分散系の摩擦シミュレーション",
      "author": "上田光生、湯川諭",
      "venue": "京都大学",
      "location": "京都府京都市左京区",
      "latitude": 35.0308115,
      "longitude": 135.7855329,
      "description": "粉体物理の現状と展望"
    },
    {
      "date": "2006-11-15-17",
      "title": "二成分Lennard-Jones粒子を用いた衝撃波管シミュレーション",
      "author": "湯川諭、伊藤伸泰",
      "venue": "京都大学",
      "location": "京都府京都市左京区",
      "latitude": 35.0308115,
      "longitude": 135.7855329,
      "description": "複雑流体の数理とシミュレーション"
    },
    {
      "date": "2006-08-01",
      "title": "3次元Lennard-Jones固体間の滑り摩擦",
      "author": "吉岡直樹、湯川諭、伊藤伸泰",
      "venue": "国際高等研究所",
      "location": "京都府木津川市",
      "latitude": 34.7414103,
      "longitude": 135.7753898,
      "description": "国際高等研究所ワークショップ「隙間-自然、人間、社会の現象学-」(日付不明)"
    },
    {
      "date": "2006-08-01",
      "title": "自己駆動散逸粒子系の物理",
      "author": "湯川諭",
      "venue": "国際高等研究所",
      "location": "京都府木津川市",
      "latitude": 34.7414103,
      "longitude": 135.7753898,
      "description": "国際高等研究所ワークショップ「隙間-自然、人間、社会の現象学-」(日付不明)"
    },
    {
      "date": "2006-03-01",
      "title": "二成分Lennard-Jones粒子を用いた大規模衝撃波管シミュレーション",
      "author": "湯川諭、伊藤伸泰",
      "venue": "東京大学",
      "location": "東京都文京区",
      "latitude": 35.7129998,
      "longitude": 139.7605728,
      "description": "特定領域研究「火山爆発のダイナミックス」平成17年度シンポジウム(日付不明)"
    },
    {
      "date": "2005-11-16-18",
      "title": "分子動力学法による噴火シミュレーション",
      "author": "湯川諭、伊藤伸泰",
      "venue": "京都大学",
      "location": "京都府京都市左京区",
      "latitude": 35.0308115,
      "longitude": 135.7855329,
      "description": "複雑流体の数理とその応用 "
    },
    {
      "date": "2005-11-16-18",
      "title": "気液界面における温度構造",
      "author": "小串典子、湯川諭、伊藤伸泰",
      "venue": "京都大学",
      "location": "京都府京都市左京区",
      "latitude": 35.0308115,
      "longitude": 135.7855329,
      "description": "複雑流体の数理とその応用 "
    },
    {
      "date": "2005-03-01",
      "title": "分子動力学法によるブルカノ式噴火のシミュレーション",
      "author": "湯川諭、伊藤伸泰",
      "venue": "東京大学",
      "location": "東京都文京区",
      "latitude": 35.7129998,
      "longitude": 139.7605728,
      "description": "特定領域研究「火山爆発のダイナミックス」平成16年度シンポジウム(日付不明)"
    },
    {
      "date": "2004-11-17-19",
      "title": "火山噴火のMDシミュレーション",
      "author": "湯川諭、伊藤伸泰",
      "venue": "京都大学",
      "location": "京都府京都市左京区",
      "latitude": 35.0308115,
      "longitude": 135.7855329,
      "description": "複雑流体の構造形成と崩壊の数理"
    },
    {
      "date": "2004-12-10-11",
      "title": "ブルカノ式噴火のシミュレーション",
      "author": "湯川諭、伊藤伸泰",
      "venue": "大阪大学",
      "location": "大阪府豊中市",
      "latitude": 34.8037821,
      "longitude": 135.4541124,
      "description": "第10回交通流のシミュレーションシンポジウム"
    },
    {
      "date": "2004-08-01",
      "title": "火山噴火のMDシミュレーション",
      "author": "湯川諭、伊藤伸泰",
      "venue": "国際高等研究所",
      "location": "京都府木津川市",
      "latitude": 34.7414103,
      "longitude": 135.7753898,
      "description": "国際高等研究所ワークショップ「隙間-自然、人間、社会の現象学-」(日付不明)"
    },
    {
      "date": "2004-08-31",
      "title": "火山噴火のMDシミュレーション",
      "author": "湯川諭、伊藤伸泰",
      "venue": "山中湖",
      "location": "山梨県山中湖村",
      "latitude": 35.416749,
      "longitude": 138.8964995,
      "description": "火山爆発夏の学校 (日付不明)"
    },
    {
      "date": "2004-03-01-03",
      "title": "火山爆発のDEMシミュレーション",
      "author": "伊藤伸泰、湯川諭",
      "venue": "東京大学",
      "location": "東京都文京区",
      "latitude": 35.7129998,
      "longitude": 139.7605728,
      "description": "特定領域研究「火山爆発のダイナミックス」平成15年度シンポジウム"
    },
    {
      "date": "2003-11-28-29",
      "title": "渋滞形成のサーキット実験",
      "author": "福井稔、市川邦彦、吉田立、菊池誠、長谷部勝也、中山章宏、西成活裕、杉山雄規、只木進一、湯川諭",
      "venue": "名古屋大学",
      "location": "愛知県名古屋市千種区",
      "latitude": 35.153491,
      "longitude": 136.967573,
      "description": "第9回交通流のシミュレーションシンポジウム"
    },
    {
      "date": "2003-11-28-29",
      "title": "交通流時系列の揺らぎを読む",
      "author": "菊池誠、中山章宏、西成活裕、杉山雄規、只木進一、湯川諭",
      "venue": "名古屋大学",
      "location": "愛知県名古屋市千種区",
      "latitude": 35.153491,
      "longitude": 136.967573,
      "description": "第9回交通流のシミュレーションシンポジウム"
    },
    {
      "date": "2005-08-01",
      "title": "イジング双極子粒子の凝集過程",
      "author": "吉岡直樹、Imre Varga、Ferenc Kun、湯川諭、伊藤伸泰",
      "venue": "国際高等研究所",
      "location": "京都府木津川市",
      "latitude": 34.7414103,
      "longitude": 135.7753898,
      "description": "国際高等研究所ワークショップ「隙間-自然、人間、社会の現象学-」(日付不明)"
    },
    {
      "date": "2004-08-01",
      "title": "双極子相互作用系の統計力学",
      "author": "吉岡直樹、湯川諭、伊藤伸泰",
      "venue": "国際高等研究所",
      "location": "京都府木津川市",
      "latitude": 34.7414103,
      "longitude": 135.7753898,
      "description": "国際高等研究所ワークショップ「隙間-自然、人間、社会の現象学-」(日付不明)"
    },
    {
      "date": "2002-11-29-30",
      "title": "車線間相関 大型車の役割",
      "author": "菊池誠、中山章宏、西成活裕、杉山雄規、只木進一、湯川諭",
      "venue": "名古屋大学",
      "location": "愛知県名古屋市千種区",
      "latitude": 35.153491,
      "longitude": 136.967573,
      "description": "第8回交通流のシミュレーションシンポジウム"
    },
    {
      "date": "2002-11-29-30",
      "title": "東名高速道路における流量揺らぎ",
      "author": "菊池誠、中山章宏、西成活裕、杉山雄規、只木進一、湯川諭",
      "venue": "名古屋大学",
      "location": "愛知県名古屋市千種区",
      "latitude": 35.153491,
      "longitude": 136.967573,
      "description": "第8回交通流のシミュレーションシンポジウム"
    },
    {
      "date": "2001-08-01",
      "title": "多様性を生む生態系のミニマルモデル",
      "author": "島田尚、湯川諭、伊藤伸泰",
      "venue": "京都大学",
      "location": "京都府京都市左京区",
      "latitude": 35.0308115,
      "longitude": 135.7855329,
      "description": "京都大学基礎物理学研究所ワークショップ&quot;大自由度進化モデルの力学系研究&quot;(日付不明)"
    },
    {
      "date": "2001-01-01",
      "title": "量子ダイナミクスにおける熱力学第二法則",
      "author": "湯川諭",
      "venue": "箱根",
      "location": "神奈川県箱根町",
      "latitude": 35.2529829,
      "longitude": 139.0438603,
      "description": "量子ダイナミクスに関する研究会(日付不明)"
    },
    {
      "date": "2000-11-15-17",
      "title": "量子ラチェットとその周辺",
      "author": "湯川諭",
      "venue": "京都大学",
      "location": "京都府京都市左京区",
      "latitude": 35.0308115,
      "longitude": 135.7855329,
      "description": "摩擦の物理"
    },
    {
      "date": "2000-11-24-25",
      "title": "トンネル上流の渋滞形成 二車線モデルと実測の比較",
      "author": "只木進一、菊池誠、杉山雄規、湯川諭",
      "venue": "名古屋大学",
      "location": "愛知県名古屋市千種区",
      "latitude": 35.153491,
      "longitude": 136.967573,
      "description": "第7回交通流のシミュレーションシンポジウム "
    },
    {
      "date": "2000-11-24-25",
      "title": "東名高速道路観測データからの知見(2)",
      "author": "湯川諭、西成活裕、只木進一、杉山雄規、菊池誠",
      "venue": "名古屋大学",
      "location": "愛知県名古屋市千種区",
      "latitude": 35.153491,
      "longitude": 136.967573,
      "description": "第7回交通流のシミュレーションシンポジウム "
    },
    {
      "date": "2000-04-01",
      "title": "非線形格子におけるエネルギー輸送",
      "author": "島田尚、湯川諭、伊藤伸泰",
      "venue": "東京大学",
      "location": "千葉県柏市",
      "latitude": 35.9014411,
      "longitude": 139.9363916,
      "description": "物性研短期研究会「物性研究における計算物理」(日付不明)"
    },
    {
      "date": "1999-11-26-27",
      "title": "非対称OptimalVelocity模型",
      "author": "菊地誠、杉山雄規、只木進一、湯川諭",
      "venue": "名古屋大学",
      "location": "愛知県名古屋市千種区",
      "latitude": 35.153491,
      "longitude": 136.967573,
      "description": "第6回交通流のシミュレーションシンポジウム"
    },
    {
      "date": "1999-11-26-27",
      "title": "流入のある高速道路での渋滞形成",
      "author": "只木進一、菊池誠、杉山雄規、湯川諭",
      "venue": "名古屋大学",
      "location": "愛知県名古屋市千種区",
      "latitude": 35.153491,
      "longitude": 136.967573,
      "description": "第6回交通流のシミュレーションシンポジウム"
    },
    {
      "date": "1999-11-26-27",
      "title": "東名高速道路観測データからの知見",
      "author": "湯川諭、西成活裕、只木進一、杉山雄規、菊池誠",
      "venue": "名古屋大学",
      "location": "愛知県名古屋市千種区",
      "latitude": 35.153491,
      "longitude": 136.967573,
      "description": "第6回交通流のシミュレーションシンポジウム"
    },
    {
      "date": "1998-11-27-28",
      "title": "CMOVモデルと輻輳交通流形成",
      "author": "只木進一、菊池誠、杉山雄規、湯川諭",
      "venue": "名古屋大学",
      "location": "愛知県名古屋市千種区",
      "latitude": 35.153491,
      "longitude": 136.967573,
      "description": "第5回交通流のシミュレーションシンポジウム"
    },
    {
      "date": "1997-12-01",
      "title": "量子ラチェット",
      "author": "湯川諭",
      "venue": "籠坊",
      "location": "兵庫県篠山市",
      "latitude": 35.0320561,
      "longitude": 135.3228091,
      "description": "物性物理の最前線(日付未定)"
    },
    {
      "date": "1995-08-01",
      "title": "交通流における密度揺らぎ",
      "author": "湯川諭、菊池誠",
      "venue": "京都大学",
      "location": "京都府京都市左京区",
      "latitude": 35.0308115,
      "longitude": 135.7855329,
      "description": "複合系ＩＩ--「要素と全体」・現象論の視座--(日付不明)"
    },
    {
      "date": "1995-12-01",
      "title": "一次元交通流の数値シミュレーション",
      "author": "湯川諭、菊池誠",
      "venue": "名古屋",
      "location": "名古屋市東区",
      "latitude": 35.1737371,
      "longitude": 136.9077622,
      "description": "交通流のシミュレーションシンポジウム"
    },
    {
      "date": "1994-12-01-02",
      "title": "結合写像を用いた一次元交通流のモデル",
      "author": "湯川諭、菊池誠",
      "venue": "名古屋",
      "location": "名古屋市東区",
      "latitude": 35.1737371,
      "longitude": 136.9077622,
      "description": "セルオートマトンによる交通流のシミュレーションシンポジウム"
    },
    {
      "date": "1994-10-05-07",
      "title": "結合写像を用いた一次元交通流のモデル",
      "author": "湯川諭、菊池誠",
      "venue": "京都大学",
      "location": "京都府京都市左京区",
      "latitude": 35.0308115,
      "longitude": 135.7855329,
      "description": "複雑系 -- 内から外へと、外から内への情報生成 --日本"
    },
    {
      "date": "1993-10-12-15",
      "title": "Freeway Jam I 一次元モデル",
      "author": "菊池誠、湯川諭、只木進一",
      "venue": "岡山大学",
      "location": "岡山市北区",
      "latitude": 34.6857329,
      "longitude": 133.9161379,
      "description": "1993年日本物理学会秋の分科会"
    },
    {
      "date": "1994-09-02-05",
      "title": "一次元交通流模型における自己組織化",
      "author": "湯川諭、菊池誠",
      "venue": "静岡大学",
      "location": "静岡市駿河区",
      "latitude": 34.965406,
      "longitude": 138.4295113,
      "description": "1994年日本物理学会秋の分科会"
    },
    {
      "date": "1995-03-28-31",
      "title": "結合写像を用いた一次元交通流のモデル",
      "author": "湯川諭、菊池誠",
      "venue": "神奈川大学",
      "location": "神奈川県横浜市神奈川区",
      "latitude": 35.484183,
      "longitude": 139.620867,
      "description": "1995年日本物理学会第50回年会"
    },
    {
      "date": "1995-09-27-30",
      "title": "結合写像を用いた一次元交通流のシミュレーション",
      "author": "湯川諭、菊池誠",
      "venue": "大阪府立大学中百舌鳥キャンパス",
      "location": "大阪府堺市 中区学園町",
      "latitude": 34.545471,
      "longitude": 135.5046577,
      "description": "1995年日本物理学会秋の分科会"
    },
    {
      "date": "1995-09-27-30",
      "title": "一次元交通流モデルにおける密度揺らぎ",      
      "author": "湯川諭、菊池誠",
      "venue": "大阪府立大学中百舌鳥キャンパス",
      "location": "大阪府堺市 中区学園町",
      "latitude": 34.545471,
      "longitude": 135.5046577,
      "description": "1995年日本物理学会秋の分科会"
    },
    {
      "date": "1996-03-31-04-03",
      "title": "一次元交通流モデルにおける密度揺らぎII",
      "author": "湯川諭、菊池誠",
      "venue": "金沢大学",
      "location": "石川県金沢市角間町",
      "latitude": 36.5459854,
      "longitude": 136.7087378,
      "description": "1996年日本物理学会第51回年会"
    },
    {
      "date": "1996-10-01-04",
      "title": "量子ラチェット",
      "author": "湯川諭",
      "venue": "山口大学",
      "location": "山口市吉田1",
      "latitude": 34.1477541,
      "longitude": 131.4630476,
      "description": "1996年日本物理学会秋の分科会"
    },
    {
      "date": "1997-03-28-31",
      "title": "最適速度関数を用いた結合写像交通流シミュレータ",
      "author": "只木進一、菊池誠、湯川諭、杉山雄規",
      "venue": "名城大学",
      "location": "名古屋市天白区",
      "latitude": 35.137739,
      "longitude": 136.968098,
      "description": "1997年日本物理学会第52回年会"
    },
    {
      "date": "1997-03-28-31",
      "title": "量子ラチェット系における量子確率カレント",
      "author": "湯川諭、菊池誠、多々良源、松川宏",
      "venue": "名城大学",
      "location": "名古屋市天白区",
      "latitude": 35.137739,
      "longitude": 136.968098,
      "description": "1997年日本物理学会第52回年会"
    },
    {
      "date": "1997-03-28-31",
      "title": "SQUIDによる量子ラチェット",
      "author": "多々良源、菊池誠、湯川諭、松川宏",
      "venue": "名城大学",
      "location": "名古屋市天白区",
      "latitude": 35.137739,
      "longitude": 136.968098,
      "description": "1997年日本物理学会第52回年会"
    },
    {
      "date": "1997-10-05-08",
      "title": "量子ラチェット系における量子非平衡定常ダイナミクス",
      "author": "湯川諭、菊池誠、多々良源、松川宏",
      "venue": "神戸大学",
      "location": "神戸市灘区六甲台町",
      "latitude": 34.7256185,
      "longitude": 135.2353953,
      "description": "1997年日本物理学会秋の分科会"
    },
    {
      "date": "1997-10-05-08",
      "title": "最適速度関数を用いた結合写像交通流シミュレータII",
      "author": "菊池誠、只木進一、杉山雄規、湯川諭",
      "venue": "神戸大学",
      "location": "神戸市灘区六甲台町",
      "latitude": 34.7256185,
      "longitude": 135.2353953,
      "description": "1997年日本物理学会秋の分科会"
    },
    {
      "date": "1997-10-05-08",
      "title": "量子ラチェット2",
      "author": "多々良源、菊池誠、湯川諭、松川宏",
      "venue": "神戸大学",
      "location": "神戸市灘区六甲台町",
      "latitude": 34.7256185,
      "longitude": 135.2353953,
      "description": "1997年日本物理学会秋の分科会"
    },
    {
      "date": "1998-03-30-04-02",
      "title": "開放端2車線交通流",
      "author": "菊池誠、只木進一、杉山雄規、湯川諭",
      "venue": "東邦大学および日本大学",
      "location": "習志野市大久保",
      "latitude": 35.6921791,
      "longitude": 140.0474147,
      "description": "1998年日本物理学会第53回年会"
    },
    {
      "date": "1998-03-30-04-02",
      "title": "量子ラチェット系における共鳴現象",
      "author": "湯川諭、菊池誠、多々良源、松川宏",
      "venue": "東邦大学および日本大学",
      "location": "習志野市大久保",
      "latitude": 35.6921791,
      "longitude": 140.0474147,
      "description": "1998年日本物理学会第53回年会"
    },
    {
      "date": "1998-03-30-04-02",
      "title": "雑音による輻輳交通流形成",
      "author": "只木進一、菊池誠、湯川諭、杉山雄規",
      "venue": "東邦大学および日本大学",
      "location": "習志野市大久保",
      "latitude": 35.6921791,
      "longitude": 140.0474147,
      "description": "1998年日本物理学会第53回年会"
    },
    {
      "date": "1998-09-25-28",
      "title": "雑音による輻輳交通流形成II",
      "author": "只木進一、菊池誠、湯川諭、杉山雄規",
      "venue": "琉球大学および沖縄国際大学",
      "location": "沖縄県中頭郡西原町",
      "latitude": 26.2546918,
      "longitude": 127.7595373,
      "description": "1998年日本物理学会秋の分科会"
    },
    {
      "date": "1999-03-28-31",
      "title": "絶滅、変異による食物連鎖の進化",
      "author": "島田尚、湯川諭、伊藤伸泰",
      "venue": "広島大学",
      "location": "広島県東広島市鏡山",
      "latitude": 34.4006798,
      "longitude": 132.7134489,
      "description": "1999年日本物理学会第54回年会"
    },
    {
      "date": "1999-03-28-31",
      "title": "ビリヤード系におけるエントロピー生成",
      "author": "村上輝好、伊藤伸泰、湯川諭",
      "venue": "広島大学",
      "location": "広島県東広島市鏡山",
      "latitude": 34.4006798,
      "longitude": 132.7134489,
      "description": "1999年日本物理学会第54回年会"
    },
    {
      "date": "1999-03-28-31",
      "title": "絶滅と分裂をともなうゲーム力学系のダイナミクス",
      "author": "湯川諭、島田尚、伊藤伸泰",
      "venue": "広島大学",
      "location": "広島県東広島市鏡山",
      "latitude": 34.4006798,
      "longitude": 132.7134489,
      "description": "1999年日本物理学会第54回年会"
    },
    {
      "date": "1999-03-28-31",
      "title": "結合写像最適速度模型による合流系のシミュレーション",
      "author": "菊池誠、只木進一、湯川諭、杉山雄規",
      "venue": "広島大学",
      "location": "広島県東広島市鏡山",
      "latitude": 34.4006798,
      "longitude": 132.7134489,
      "description": "1999年日本物理学会第54回年会"
    },
    {
      "date": "1999-09-24-27",
      "title": "２次元粒子系における熱伝導のシミュレーション",
      "author": "村上輝好、湯川諭、伊藤伸泰",
      "venue": "岩手大学",
      "location": "岩手県盛岡市上田",
      "latitude": 39.7157031,
      "longitude": 141.1382829,
      "description": "1999年日本物理学会秋の分科会"
    },
    {
      "date": "1999-09-24-27",
      "title": "非線型格子の熱伝導の次元依存性",
      "author": "島田尚、伊藤伸泰、湯川諭、斉藤圭司",
      "venue": "岩手大学",
      "location": "岩手県盛岡市上田",
      "latitude": 39.7157031,
      "longitude": 141.1382829,
      "description": "1999年日本物理学会秋の分科会"
    },
    {
      "date": "1999-09-24-27",
      "title": "非断熱遷移によって駆動される量子機械",
      "author": "湯川諭",
      "venue": "岩手大学",
      "location": "岩手県盛岡市上田",
      "latitude": 39.7157031,
      "longitude": 141.1382829,
      "description": "1999年日本物理学会秋の分科会"
    },
    {
      "date": "2000-03-22-25",
      "title": "連続パーコレーションモデルにおける多分散性の効果",
      "author": "渡辺宙志、湯川諭、伊藤伸泰",
      "venue": "関西大学",
      "location": "大阪府吹田市千里山",
      "latitude": 34.774437,
      "longitude": 135.5118989,
      "description": "2000年日本物理学会春の分科会"
    },
    {
      "date": "2000-03-22-25",
      "title": "可逆な力学系からのフーリエ型熱伝導則の実現",
      "author": "島田尚、伊藤伸泰、湯川諭、斉藤圭司",
      "venue": "関西大学",
      "location": "大阪府吹田市千里山",
      "latitude": 34.774437,
      "longitude": 135.5118989,
      "description": "2000年日本物理学会春の分科会"
    },
    {
      "date": "2000-03-22-25",
      "title": "剛体球系の熱伝導率のシステムサイズ依存性",
      "author": "村上輝好、伊藤伸泰、湯川諭",
      "venue": "関西大学",
      "location": "大阪府吹田市千里山",
      "latitude": 34.774437,
      "longitude": 135.5118989,
      "description": "2000年日本物理学会春の分科会"
    },
    {
      "date": "2000-03-22-25",
      "title": "量子系におけるJarzynski等式",
      "author": "湯川諭",
      "venue": "関西大学",
      "location": "大阪府吹田市千里山",
      "latitude": 34.774437,
      "longitude": 135.5118989,
      "description": "2000年日本物理学会春の分科会"
    },
    {
      "date": "2000-03-22-25",
      "title": "なぜ高速道路の追い越し車線は走行車線より混んでいるか",
      "author": "只木進一、菊池誠、杉山雄規、湯川諭",
      "venue": "関西大学",
      "location": "大阪府吹田市千里山",
      "latitude": 34.774437,
      "longitude": 135.5118989,
      "description": "2000年日本物理学会春の分科会"
    },
    {
      "date": "2000-03-22-25",
      "title": "交通流はカオスか",
      "author": "湯川諭、西成活裕、只木進一、杉山雄規、菊池誠",
      "venue": "関西大学",
      "location": "大阪府吹田市千里山",
      "latitude": 34.774437,
      "longitude": 135.5118989,
      "description": "2000年日本物理学会春の分科会"
    },
    {
      "date": "2000-09-22-25",
      "title": "多種共存系の探索と食物連鎖の進化",
      "author": "島田尚、湯川諭、伊藤伸泰",
      "venue": "新潟大学",
      "location": "新潟市西区五十嵐",
      "latitude": 37.8677088,
      "longitude": 138.9418977,
      "description": "2000年日本物理学会第55回年次大会"
    },
    {
      "date": "2000-09-22-25",
      "title": "非平衡エネルギー輸送が駆動する固液共存状態",
      "author": "村上輝好、湯川諭、伊藤伸泰",
      "venue": "新潟大学",
      "location": "新潟市西区五十嵐",
      "latitude": 37.8677088,
      "longitude": 138.9418977,
      "description": "2000年日本物理学会第55回年次大会"
    },
    {
      "date": "2000-09-22-25",
      "title": "分子動力学法により楕円を用いて液晶の相転移を調べる",
      "author": "渡辺宙志、Hans-Georg Matuttis、湯川諭、伊藤伸泰",
      "venue": "新潟大学",
      "location": "新潟市西区五十嵐",
      "latitude": 37.8677088,
      "longitude": 138.9418977,
      "description": "2000年日本物理学会第55回年次大会"
    },
    {
      "date": "2000-09-22-25",
      "title": "二車線交通流模型による隘路上流の渋滞形成",
      "author": "只木進一、菊池誠、杉山雄規、湯川諭",
      "venue": "新潟大学",
      "location": "新潟市西区五十嵐",
      "latitude": 37.8677088,
      "longitude": 138.9418977,
      "description": "2000年日本物理学会第55回年次大会"
    },
    {
      "date": "2000-10-06-08",
      "title": "生命自己組織化のモデル",
      "author": "島田尚、湯川諭、伊藤伸泰",
      "venue": "東京工業大学",
      "location": "目黒区大岡山",
      "latitude": 35.6051229,
      "longitude": 139.6835302,
      "description": "日本応用数理学会2000年度年会"
    },
    {
      "date": "2001-03-27-30",
      "title": "非平衡状態における固相-液相界面",
      "author": "村上輝好、湯川諭、伊藤伸泰",
      "venue": "中央大学",
      "location": "東京都八王子市東中野",
      "latitude": 35.6413899,
      "longitude": 139.4057161,
      "description": "2001年日本物理学会第56回年次大会"
    },
    {
      "date": "2001-03-27-30",
      "title": "楕円モデルの分子動力学法と液晶相",
      "author": "渡辺宙志、Hans-Georg Matuttis、湯川諭、伊藤伸泰",
      "venue": "中央大学",
      "location": "東京都八王子市東中野",
      "latitude": 35.6413899,
      "longitude": 139.4057161,
      "description": "2001年日本物理学会第56回年次大会"
    },
    {
      "date": "2001-03-27-30",
      "title": "食物連鎖のモデルによる生態系の自己組織化へのアプローチ",
      "author": "島田尚、湯川諭、伊藤伸泰",
      "venue": "中央大学",
      "location": "東京都八王子市東中野",
      "latitude": 35.6413899,
      "longitude": 139.4057161,
      "description": "2001年日本物理学会第56回年次大会"
    },
    {
      "date": "2001-03-27-30",
      "title": "流体中における物体間相互作用の数値計算",
      "author": "石渡竜也、湯川諭、伊藤伸泰",
      "venue": "中央大学",
      "location": "東京都八王子市東中野",
      "latitude": 35.6413899,
      "longitude": 139.4057161,
      "description": "2001年日本物理学会第56回年次大会"
    },
    {
      "date": "2001-03-27-30",
      "title": "線型応答理論による体積粘性率の計算",
      "author": "最上康太、湯川諭、伊藤伸泰",
      "venue": "中央大学",
      "location": "東京都八王子市東中野",
      "latitude": 35.6413899,
      "longitude": 139.4057161,
      "description": "2001年日本物理学会第56回年次大会"
    },
    {
      "date": "2001-03-27-30",
      "title": "量子ラチェット系の流れの方向依存性とそのメカニズム",
      "author": "齊藤圭司、湯川諭",
      "venue": "中央大学",
      "location": "東京都八王子市東中野",
      "latitude": 35.6413899,
      "longitude": 139.4057161,
      "description": "2001年日本物理学会第56回年次大会"
    },
    {
      "date": "2001-03-27-30",
      "title": "量子系の非平衡ダイナミクスと熱力学量",
      "author": "湯川諭",
      "venue": "中央大学",
      "location": "東京都八王子市東中野",
      "latitude": 35.6413899,
      "longitude": 139.4057161,
      "description": "2001年日本物理学会第56回年次大会"
    },
    {
      "date": "2001-09-17-20",
      "title": "潤滑膜の分子動力学シミュレーション",
      "author": "村上輝好、湯川諭、伊藤伸泰",
      "venue": "徳島文理大学",
      "location": "徳島県徳島市山城町",
      "latitude": 34.052733,
      "longitude": 134.5573075,
      "description": "2001年日本物理学会秋季大会"
    },
    {
      "date": "2001-09-17-20",
      "title": "生態系進化のメカニズム",
      "author": "島田尚、湯川諭、伊藤伸泰",
      "venue": "徳島文理大学",
      "location": "徳島県徳島市山城町",
      "latitude": 34.052733,
      "longitude": 134.5573075,
      "description": "2001年日本物理学会秋季大会"
    },
    {
      "date": "2001-09-17-20",
      "title": "運動粒子の軌道についての数値計算",
      "author": "石渡竜也、湯川諭、伊藤伸泰",
      "venue": "徳島文理大学",
      "location": "徳島県徳島市山城町",
      "latitude": 34.052733,
      "longitude": 134.5573075,
      "description": "2001年日本物理学会秋季大会"
    },
    {
      "date": "2002-03-24-27",
      "title": "剛体球系のクエット流における輸送係数の定量的評価",
      "author": "村上輝好、湯川諭、伊藤伸泰",
      "venue": "立命館大学びわこ・くさつキャンパス",
      "location": "滋賀県草津市野路東",
      "latitude": 34.982077,
      "longitude": 135.963718,
      "description": "2002年日本物理学会第57回年会"
    },
    {
      "date": "2002-03-24-27",
      "title": "食物網 Size-Free モデルの性質と生態系",
      "author": "島田尚、湯川諭、伊藤伸泰",
      "venue": "立命館大学びわこ・くさつキャンパス",
      "location": "滋賀県草津市野路東",
      "latitude": 34.982077,
      "longitude": 135.963718,
      "description": "2002年日本物理学会第57回年会"
    },
    {
      "date": "2002-03-24-27",
      "title": "量子スピンラチェット",
      "author": "奥西巧一、齋藤圭司、湯川諭",
      "venue": "立命館大学びわこ・くさつキャンパス",
      "location": "滋賀県草津市野路東",
      "latitude": 34.982077,
      "longitude": 135.963718,
      "description": "2002年日本物理学会第57回年会"
    },
    {
      "date": "2002-03-24-27",
      "title": "一次元の交通流モデルと熱力学",
      "author": "湯川諭",
      "venue": "立命館大学びわこ・くさつキャンパス",
      "location": "滋賀県草津市野路東",
      "latitude": 34.982077,
      "longitude": 135.963718,
      "description": "2002年日本物理学会第57回年会"
    },
    {
      "date": "2002-09-06-09",
      "title": "convectionのfreezingに対する影響",
      "author": "村上輝好、湯川諭、伊藤伸泰",
      "venue": "中部大学",
      "location": "愛知県春日井市松本町",
      "latitude": 35.273023,
      "longitude": 137.0153788,
      "description": "2002年日本物理学会秋季大会"
    },
    {
      "date": "2002-09-06-09",
      "title": "薄膜の潤滑特性における膜厚依存性",
      "author": "村上輝好、湯川諭、伊藤伸泰",
      "venue": "中部大学",
      "location": "愛知県春日井市松本町",
      "latitude": 35.273023,
      "longitude": 137.0153788,
      "description": "2002年日本物理学会秋季大会"
    },
    {
      "date": "2002-09-06-09",
      "title": "Hamiltonian Mean-Field Model における準安定状態と Tsallis 統計",
      "author": "島田尚、湯川諭、伊藤伸泰",
      "venue": "中部大学",
      "location": "愛知県春日井市松本町",
      "latitude": 35.273023,
      "longitude": 137.0153788,
      "description": "2002年日本物理学会秋季大会"
    },
    {
      "date": "2002-09-06-09",
      "title": "量子機械系としての量子スピンラチェット",
      "author": "湯川諭、齋藤圭司、奥西巧一",
      "venue": "中部大学",
      "location": "愛知県春日井市松本町",
      "latitude": 35.273023,
      "longitude": 137.0153788,
      "description": "2002年日本物理学会秋季大会"
    },
    {
      "date": "2002-09-06-09",
      "title": "浸透問題における有限サイズスケーリング関数のアスペクト比依存性",
      "author": "渡辺宙志、湯川諭、伊藤伸泰、Chin-Kun Hu",
      "venue": "中部大学",
      "location": "愛知県春日井市松本町",
      "latitude": 35.273023,
      "longitude": 137.0153788,
      "description": "2002年日本物理学会秋季大会"
    },
    {
      "date": "2003-03-03-07",
      "title": "Non-equilibirium analysis on Two-dimensional Melting",
      "author": "HIroshi Watanabe, Satoshi Yukawa, and Nobuyasu Ito",
      "venue": "Austin",
      "location": "Austin",
      "latitude": 30.2597464,
      "longitude": -97.7670931,
      "description": "2003 APS March Meeting"
    },
    {
      "date": "2003-03-28-31",
      "title": "二次元粒子系における揺らぎの非平衡緩和関数による解析",
      "author": "渡辺宙志、湯川諭、尾関之康、伊藤伸泰",
      "venue": "東北大学川内キャンパス、東北学院大学土樋キャンパス",
      "location": "仙台市青葉区川内",
      "latitude": 38.2584102,
      "longitude": 140.849645,
      "description": "2003年日本物理学会第58回年次大会"
    },
    {
      "date": "2003-03-28-31",
      "title": "角運動量を持つ重力多体系の計算力学的研究",
      "author": "鈴木将、湯川諭、伊藤伸泰",
      "venue": "東北大学川内キャンパス、東北学院大学土樋キャンパス",
      "location": "仙台市青葉区川内",
      "latitude": 38.2584102,
      "longitude": 140.849645,
      "description": "2003年日本物理学会第58回年次大会"
    },
    {
      "date": "2003-03-28-31",
      "title": "マイクロ燃焼のシミュレーション",
      "author": "山崎淳之介、村上輝好、湯川諭、伊藤伸泰",
      "venue": "東北大学川内キャンパス、東北学院大学土樋キャンパス",
      "location": "仙台市青葉区川内",
      "latitude": 38.2584102,
      "longitude": 140.849645,
      "description": "2003年日本物理学会第58回年次大会"
    },
    {
      "date": "2003-03-28-31",
      "title": "高速道路交通流のゆらぎ",
      "author": "菊池誠、柴田章博、杉山雄規、只木進一、中山章宏、西成括祐、湯川諭",
      "venue": "東北大学川内キャンパス、東北学院大学土樋キャンパス",
      "location": "仙台市青葉区川内",
      "latitude": 38.2584102,
      "longitude": 140.849645,
      "description": "2003年日本物理学会第58回年次大会"
    },
    {
      "date": "2003-03-28-31",
      "title": "高速道路交通流の渋滞パターン",
      "author": "菊池誠、中山章宏、西成活裕、柴田章博、杉山雄規、只木進一、湯川諭",
      "venue": "東北大学川内キャンパス、東北学院大学土樋キャンパス",
      "location": "仙台市青葉区川内",
      "latitude": 38.2584102,
      "longitude": 140.849645,
      "description": "2003年日本物理学会第58回年次大会"
    },
    {
      "date": "2003-03-28-31",
      "title": "高速道交通流における大型車の役割",
      "author": "菊池誠、中山章宏、西成活裕、杉山雄規、只木進一、湯川諭",
      "venue": "東北大学川内キャンパス、東北学院大学土樋キャンパス",
      "location": "仙台市青葉区川内",
      "latitude": 38.2584102,
      "longitude": 140.849645,
      "description": "2003年日本物理学会第58回年次大会"
    },
    {
      "date": "2003-09-20-23",
      "title": "剛体粒子を用いたナノエンジンの計算統計力学",
      "author": "山崎淳之介、湯川諭、伊藤伸泰",
      "venue": "岡山大学",
      "location": "岡山市北区",
      "latitude": 34.6857329,
      "longitude": 133.9161379,
      "description": "2003年日本物理学会秋季大会"
    },
    {
      "date": "2003-09-20-23",
      "title": "生物科の寿命の q-exponential 分布則について",
      "author": "島田尚、湯川諭、伊藤伸泰",
      "venue": "岡山大学",
      "location": "岡山市北区",
      "latitude": 34.6857329,
      "longitude": 133.9161379,
      "description": "2003年日本物理学会秋季大会"
    },
    {
      "date": "2003-09-20-23",
      "title": "粒子系における棄却なしモンテカルロ法",
      "author": "渡辺宙志、湯川諭、M. A. Novotny、伊藤伸泰",
      "venue": "岡山大学",
      "location": "岡山市北区",
      "latitude": 34.6857329,
      "longitude": 133.9161379,
      "description": "2003年日本物理学会秋季大会"
    },
    {
      "date": "2003-09-20-23",
      "title": "Lennard-Jones 粒子系における熱伝導のシミュレーション",
      "author": "小串典子、湯川諭、伊藤伸泰",
      "venue": "岡山大学",
      "location": "岡山市北区",
      "latitude": 34.6857329,
      "longitude": 133.9161379,
      "description": "2003年日本物理学会秋季大会"
    },
    {
      "date": "2003-09-20-23",
      "title": "重力多体系中の波動伝播に関する数値力学的研究",
      "author": "鈴木将、湯川諭、伊藤伸泰",
      "venue": "岡山大学",
      "location": "岡山市北区",
      "latitude": 34.6857329,
      "longitude": 133.9161379,
      "description": "2003年日本物理学会秋季大会"
    },
    {
      "date": "2004-03-27-30",
      "title": "気液界面のシミュレーション",
      "author": "小串典子、湯川諭、伊藤伸泰",
      "venue": "九州大学箱崎キャンパス",
      "location": "福岡市博多区箱崎",
      "latitude": 33.6266628,
      "longitude": 130.4228505,
      "description": "2004年日本物理学会第59回年次大会"
    },
    {
      "date": "2004-03-27-30",
      "title": "多分散剛体円盤系の相図",
      "author": "渡辺宙志、湯川諭、尾関之康、伊藤伸泰",
      "venue": "九州大学箱崎キャンパス",
      "location": "福岡市博多区箱崎",
      "latitude": 33.6266628,
      "longitude": 130.4228505,
      "description": "2004年日本物理学会第59回年次大会"
    },
    {
      "date": "2004-03-27-30",
      "title": "自然渋滞発生のサーキット実験",
      "author": "杉山雄規、福井稔、菊池誠、長谷部勝也、中山章宏、西成活裕、及川浩和、只木進一、湯川諭、吉田立",
      "venue": "九州大学箱崎キャンパス",
      "location": "福岡市博多区箱崎",
      "latitude": 33.6266628,
      "longitude": 130.4228505,
      "description": "2004年日本物理学会第59回年次大会"
    },
    {
      "date": "2004-03-27-30",
      "title": "渋滞発生のサーキット実験映像",
      "author": "菊池誠、福井稔、長谷部勝也、中山章宏、西成活裕、及川浩和、杉山雄規、只木進一、吉田立、湯川諭",
      "venue": "九州大学箱崎キャンパス",
      "location": "福岡市博多区箱崎",
      "latitude": 33.6266628,
      "longitude": 130.4228505,
      "description": "2004年日本物理学会第59回年次大会"
    },
    {
      "date": "2004-03-27-30",
      "title": "交通流時系列における特徴的時間スケール",
      "author": "只木進一、菊池誠、中山章宏、西成克裕、柴田章博、杉山雄規、湯川諭",
      "venue": "九州大学箱崎キャンパス",
      "location": "福岡市博多区箱崎",
      "latitude": 33.6266628,
      "longitude": 130.4228505,
      "description": "2004年日本物理学会第59回年次大会"
    },
    {
      "date": "2004-03-27-30",
      "title": "Jarzynski等式はどこまで使えるか",
      "author": "湯川諭",
      "venue": "九州大学箱崎キャンパス",
      "location": "福岡市博多区箱崎",
      "latitude": 33.6266628,
      "longitude": 130.4228505,
      "description": "2004年日本物理学会第59回年次大会"
    },
    {
      "date": "2004-03-27-30",
      "title": "重力（クーロン力）多体系中の密度波パターンに関する計算力学的研究",
      "author": "鈴木将、湯川諭、伊藤伸泰",
      "venue": "九州大学箱崎キャンパス",
      "location": "福岡市博多区箱崎",
      "latitude": 33.6266628,
      "longitude": 130.4228505,
      "description": "2004年日本物理学会第59回年次大会"
    },
    {
      "date": "2004-09-12-15",
      "title": "熱伝導の分子動力学シミュレーション",
      "author": "伊藤伸泰、小串典子、湯川諭",
      "venue": "青森大学",
      "location": "青森市幸畑",
      "latitude": 40.7814527,
      "longitude": 140.7788713,
      "description": "2004年日本物理学会秋季大会プログラム"
    },
    {
      "date": "2004-09-12-15",
      "title": "多種化学反応系の非平衡現象",
      "author": "上村淳、湯川諭、伊藤伸泰",
      "venue": "青森大学",
      "location": "青森市幸畑",
      "latitude": 40.7814527,
      "longitude": 140.7788713,
      "description": "2004年日本物理学会秋季大会プログラム"
    },
    {
      "date": "2004-09-12-15",
      "title": "長方形領域における浸透問題のスケーリング",
      "author": "渡辺宙志、湯川諭、伊藤伸泰、Chin-Kun Hu",
      "venue": "青森大学",
      "location": "青森市幸畑",
      "latitude": 40.7814527,
      "longitude": 140.7788713,
      "description": "2004年日本物理学会秋季大会プログラム"
    },
    {
      "date": "2004-09-12-15",
      "title": "一般の速度分散をもつ長距離相互作用・回転系におけるパターン形成",
      "author": "鈴木将、湯川諭、伊藤伸泰",
      "venue": "青森大学",
      "location": "青森市幸畑",
      "latitude": 40.7814527,
      "longitude": 140.7788713,
      "description": "2004年日本物理学会秋季大会プログラム"
    },
    {
      "date": "2004-09-12-15",
      "title": "双極子相互作用系の統計力学",
      "author": "吉岡直樹、湯川諭、伊藤伸泰",
      "venue": "青森大学",
      "location": "青森市幸畑",
      "latitude": 40.7814527,
      "longitude": 140.7788713,
      "description": "2004年日本物理学会秋季大会プログラム"
    },
    {
      "date": "2004-09-12-15",
      "title": "火山噴火ダイナミクスのシミュレーション",
      "author": "湯川諭、伊藤伸泰",
      "venue": "青森大学",
      "location": "青森市幸畑",
      "latitude": 40.7814527,
      "longitude": 140.7788713,
      "description": "2004年日本物理学会秋季大会プログラム"
    },
    {
      "date": "2005-03-21-25",
      "title": "Super-scaling of Percolation on Rectangular Domains",
      "author": "H. Watanabe, S. Yukawa, and N. Ito, C.-K. Hu",
      "venue": "Los Angeles",
      "location": "Los Angeles",
      "latitude": 34.0507017,
      "longitude": -118.4189996,
      "description": "2005 APS March Meeting"
    },
    {
      "date": "2005-03-21-25",
      "title": "A rejection-free Monte Carlo method for the hard-disk system",
      "author": "H. Watanabe, S. Yukawa, M. A. Novotny, N. Ito",
      "venue": "Los Angeles",
      "location": "Los Angeles",
      "latitude": 34.0507017,
      "longitude": -118.4189996,
      "description": "2005 APS March Meeting"
    },
    {
      "date": "2005-03-24-27",
      "title": "2成分双極子粒子系の多分散性と構造形成",
      "author": "吉岡直樹、Imre Varga、Ferenc Kun、湯川諭、伊藤伸泰",
      "venue": "東京理科大学野田キャンパス",
      "location": "千葉県野田市山崎",
      "latitude": 35.919796,
      "longitude": 139.9082389,
      "description": "2005年日本物理学会第60回年次大会"
    },
    {
      "date": "2005-03-24-27",
      "title": "非平衡状態における化学反応定数",
      "author": "上村淳、湯川諭、伊藤伸泰",
      "venue": "東京理科大学野田キャンパス",
      "location": "千葉県野田市山崎",
      "latitude": 35.919796,
      "longitude": 139.9082389,
      "description": "2005年日本物理学会第60回年次大会"
    },
    {
      "date": "2005-03-24-27",
      "title": "ブルカノ式噴火のシミュレーション",
      "author": "湯川諭、伊藤伸泰",
      "venue": "東京理科大学野田キャンパス",
      "location": "千葉県野田市山崎",
      "latitude": 35.919796,
      "longitude": 139.9082389,
      "description": "2005年日本物理学会第60回年次大会"
    },
    {
      "date": "2005-03-24-27",
      "title": "双極子二成分コロイド系の有限温度における構造",
      "author": "鈴木将、湯川諭、Ferenc Kun、伊藤伸泰",
      "venue": "東京理科大学野田キャンパス",
      "location": "千葉県野田市山崎",
      "latitude": 35.919796,
      "longitude": 139.9082389,
      "description": "2005年日本物理学会第60回年次大会"
    },
    {
      "date": "2005-03-24-27",
      "title": "Lennard-Jones粒子系における気泡核生成",
      "author": "小串典子、湯川諭、伊藤伸泰",
      "venue": "東京理科大学野田キャンパス",
      "location": "千葉県野田市山崎",
      "latitude": 35.919796,
      "longitude": 139.9082389,
      "description": "2005年日本物理学会第60回年次大会"
    },
    {
      "date": "2005-09-19-22",
      "title": "摩擦の三次元非平衡分子動力学シミュレーション",
      "author": "吉岡直樹、湯川諭、伊藤伸泰",
      "venue": "同志社大学京田辺キャンパス",
      "location": "京田辺市多々羅都谷",
      "latitude": 34.8024294,
      "longitude": 135.769505,
      "description": "2005年日本物理学会秋季大会"
    },
    {
      "date": "2005-09-19-22",
      "title": "双極子相互作用粒子、単層系の熱力学",
      "author": "鈴木将、湯川諭、Ferenc Kun、伊藤伸泰",
      "venue": "同志社大学京田辺キャンパス",
      "location": "京田辺市多々羅都谷",
      "latitude": 34.8024294,
      "longitude": 135.769505,
      "description": "2005年日本物理学会秋季大会"
    },
    {
      "date": "2005-09-19-22",
      "title": "気液界面構造",
      "author": "小串典子、湯川諭、伊藤伸泰",
      "venue": "同志社大学京田辺キャンパス",
      "location": "京田辺市多々羅都谷",
      "latitude": 34.8024294,
      "longitude": 135.769505,
      "description": "2005年日本物理学会秋季大会"
    },
    {
      "date": "2005-09-19-22",
      "title": "渦糸系の非平衡定常状態",
      "author": "伊藤純至、湯川諭、伊藤伸泰",
      "venue": "同志社大学京田辺キャンパス",
      "location": "京田辺市多々羅都谷",
      "latitude": 34.8024294,
      "longitude": 135.769505,
      "description": "2005年日本物理学会秋季大会"
    },
    {
      "date": "2005-09-19-22",
      "title": "剛体円盤系におけるKosteritz-Thouless転移",
      "author": "渡辺宙志、湯川諭、伊藤伸泰",
      "venue": "同志社大学京田辺キャンパス",
      "location": "京田辺市多々羅都谷",
      "latitude": 34.8024294,
      "longitude": 135.769505,
      "description": "2005年日本物理学会秋季大会"
    },
    {
      "date": "2005-09-19-22",
      "title": "爆発的膨張における局所平衡の破れ",
      "author": "湯川諭",
      "venue": "同志社大学京田辺キャンパス",
      "location": "京田辺市多々羅都谷",
      "latitude": 34.8024294,
      "longitude": 135.769505,
      "description": "2005年日本物理学会秋季大会"
    },
    {
      "date": "2005-09-19-22",
      "title": "生態系の種数のダイナミクスと構造",
      "author": "村瀬洋介、島田尚、湯川諭、伊藤伸泰",
      "venue": "同志社大学京田辺キャンパス",
      "location": "京田辺市多々羅都谷",
      "latitude": 34.8024294,
      "longitude": 135.769505,
      "description": "2005年日本物理学会秋季大会"
    },
    {
      "date": "2005-09-19-22",
      "title": "多種反応系の統計力学的研究",
      "author": "上村淳、湯川諭、伊藤伸泰",
      "venue": "同志社大学京田辺キャンパス",
      "location": "京田辺市多々羅都谷",
      "latitude": 34.8024294,
      "longitude": 135.769505,
      "description": "2005年日本物理学会秋季大会"
    },
    {
      "date": "2006-03-27-30",
      "title": "3次元非線形格子系における熱伝導",
      "author": "芝隼人、 湯川諭、伊藤伸泰",
      "venue": "愛媛大学、松山大学",
      "location": "愛媛県松山市",
      "latitude": 33.8498425,
      "longitude": 132.7691153,
      "description": "2006年日本物理学会第61回年次大会"
    },
    {
      "date": "2006-03-27-30",
      "title": "粒子系における位置秩序と拡散過程",
      "author": "渡辺宙志、湯川諭、伊藤伸泰",
      "venue": "愛媛大学、松山大学",
      "location": "愛媛県松山市",
      "latitude": 33.8498425,
      "longitude": 132.7691153,
      "description": "2006年日本物理学会第61回年次大会"
    },
    {
      "date": "2006-03-27-30",
      "title": "3次元Lennard-Jones固体間の滑り摩擦",
      "author": "吉岡直樹、湯川諭、伊藤伸泰",
      "venue": "愛媛大学、松山大学",
      "location": "愛媛県松山市",
      "latitude": 33.8498425,
      "longitude": 132.7691153,
      "description": "2006年日本物理学会第61回年次大会"
    },
    {
      "date": "2006-03-27-30",
      "title": "壁がある2次元矩形領域での渦糸系の分布",
      "author": "伊藤純至、湯川諭、伊藤伸泰",
      "venue": "愛媛大学、松山大学",
      "location": "愛媛県松山市",
      "latitude": 33.8498425,
      "longitude": 132.7691153,
      "description": "2006年日本物理学会第61回年次大会"
    },
    {
      "date": "2006-03-27-30",
      "title": "化学反応の統計力学的研究",
      "author": "上村淳、湯川諭、伊藤伸泰",
      "venue": "愛媛大学、松山大学",
      "location": "愛媛県松山市",
      "latitude": 33.8498425,
      "longitude": 132.7691153,
      "description": "2006年日本物理学会第61回年次大会"
    },
    {
      "date": "2006-03-27-30",
      "title": "生態系モデルにおける種の多様化の条件",
      "author": "村瀬洋介、島田尚、湯川諭、伊藤伸泰",
      "venue": "愛媛大学、松山大学",
      "location": "愛媛県松山市",
      "latitude": 33.8498425,
      "longitude": 132.7691153,
      "description": "2006年日本物理学会第61回年次大会"
    },
    {
      "date": "2006-09-23-26",
      "title": "二成分Lennard-Jones粒子系における衝撃波管シミュレーション",
      "author": "湯川諭、伊藤伸泰",
      "venue": "千葉大学西千葉キャンパス",
      "location": "千葉市稲毛区弥生町",
      "latitude": 35.6277417,
      "longitude": 140.1011742,
      "description": "2006年日本物理学会秋季大会"
    },
    {
      "date": "2006-09-23-26",
      "title": "界面熱抵抗の非平衡シミュレーション",
      "author": "小串典子、島田尚、伊藤伸泰、湯川諭、Baowen Li",
      "venue": "千葉大学西千葉キャンパス",
      "location": "千葉市稲毛区弥生町",
      "latitude": 35.6277417,
      "longitude": 140.1011742,
      "description": "2006年日本物理学会秋季大会"
    },
    {
      
      "date": "2006-09-23-26",
      "title": "非平衡反応系の粒子シミュレーション",
      "author": "上村淳、湯川諭、伊藤伸泰",
      "venue": "千葉大学西千葉キャンパス",
      "location": "千葉市稲毛区弥生町",
      "latitude": 35.6277417,
      "longitude": 140.1011742,
      "description": "2006年日本物理学会秋季大会"
    },
    {
      
      "date": "2007-03-18-21",
      "title": "生態系の種数変動と個体数分布",
      "author": "村瀬洋介、島田尚、湯川諭、伊藤伸泰",
      "venue": "鹿児島大学郡元キャンパス",
      "location": "鹿児島市郡元",
      "latitude": 31.5719226,
      "longitude": 130.5430461,
      "description": "2007年日本物理学会春季大会"
    },
    {
      
      "date": "2007-03-18-21",
      "title": "潤滑剤摩擦系の位相模型",
      "author": "吉野元、松川宏、湯川諭",
      "venue": "鹿児島大学郡元キャンパス",
      "location": "鹿児島市郡元",
      "latitude": 31.5719226,
      "longitude": 130.5430461,
      "description": "2007年日本物理学会春季大会"
    },
    {
      
      "date": "2007-05-19-24",
      "title": "二成分レナードジョーンズ粒子を用いた分子動力学法による衝撃波管シミュレーション",
      "author": "湯川諭、伊藤伸泰",
      "venue": "幕張メッセ",
      "location": "千葉県千葉市美浜区",
      "latitude": 35.64730738737488,
      "longitude": 140.03484318396147,
      "description": "日本地球惑星科学連合2007年大会"
    },
    {
      
      "date": "2007-09-21-24",
      "title": "Isingモデルを用いた界面系の熱伝導",
      "author": "原野和也、湯川諭",
      "venue": "北海道大学札幌キャンパス",
      "location": "北海道札幌市北区",
      "latitude": 43.0779575,
      "longitude": 141.340013,
      "description": "2007年日本物理学会第62回年次大会"
    },
    {
      
      "date": "2007-09-21-24",
      "title": "熱伝導系における熱流分布",
      "author": "湯川諭、島田尚",
      "venue": "北海道大学札幌キャンパス",
      "location": "北海道札幌市北区",
      "latitude": 43.0779575,
      "longitude": 141.340013,
      "description": "2007年日本物理学会第62回年次大会"
    },
    {
      
      "date": "2007-09-21-24",
      "title": "多分散系の摩擦シミュレーション",
      "author": "上田光生、湯川諭",
      "venue": "北海道大学札幌キャンパス",
      "location": "北海道札幌市北区",
      "latitude": 43.0779575,
      "longitude": 141.340013,
      "description": "2007年日本物理学会第62回年次大会"
    },
    {
      
      "date": "2008-03-22-26",
      "title": "Isingモデルを用いた界面系の熱伝導II",
      "author": "原野和也、湯川諭",
      "venue": "近畿大学本部キャンパス",
      "location": "大阪府東大阪市小若江",
      "latitude":  34.6514513,
      "longitude": 135.5870718,
      "description": "2008年日本物理学会第63回年次大会"
    },
    {
      
      "date": "2008-03-22-26",
      "title": "多分散系の摩擦シミュレーション2",
      "author": "上田光生、湯川諭",
      "venue": "近畿大学本部キャンパス",
      "location": "大阪府東大阪市小若江",
      "latitude":  34.6514513,
      "longitude": 135.5870718,
      "description": "2008年日本物理学会第63回年次大会"
    },
    {
      
      "date": "2008-05-25-30",
      "title": "DEM-MPSによる固液混相流の再現と解析",
      "author": "坂本登史文、湯川諭",
      "venue": "幕張メッセ",
      "location": "千葉県千葉市美浜区",
      "latitude": 35.64730738737488,
      "longitude": 140.03484318396147,
      "description": "日本地球惑星科学連合2008年大会"
    },
    {
      
      "date": "2008-09-20-23",
      "title": "Lennard-Jones粒子系による衝撃波破砕と相分離ダイナミクス",
      "author": "稲岡創、湯川諭、島田尚、伊藤伸泰",
      "venue": "岩手大学上田キャンパス",
      "location": "岩手県盛岡市上田",
      "latitude": 39.7160025,
      "longitude": 141.1359744,
      "description": "2008年日本物理学会秋季大会"
    },
    {
      
      "date": "2008-09-20-23",
      "title": "定常な熱伝導系におけるIsing界面運動の現象論的解析",
      "author": "原野和也、湯川諭",
      "venue": "岩手大学上田キャンパス",
      "location": "岩手県盛岡市上田",
      "latitude": 39.7160025,
      "longitude": 141.1359744,
      "description": "2008年日本物理学会秋季大会"
    },
    {
      
      "date": "2008-09-20-23",
      "title": "熱伝導系における非平衡熱流分布",
      "author": "湯川諭、島田尚、小串典子、伊藤伸泰",
      "venue": "岩手大学上田キャンパス",
      "location": "岩手県盛岡市上田",
      "latitude": 39.7160025,
      "longitude": 141.1359744,
      "description": "2008年日本物理学会秋季大会"
    },
    {
      
      "date": "2008-09-20-23",
      "title": "非平衡定常系におけるエントロピー測定の数値的検証",
      "author": "小松輝久、中川尚子、佐々真一、湯川諭、伊藤伸泰",
      "venue": "岩手大学上田キャンパス",
      "location": "岩手県盛岡市上田",
      "latitude": 39.7160025,
      "longitude": 141.1359744,
      "description": "2008年日本物理学会秋季大会"
    },
    {
      
      "date": "2009-03-27-30",
      "title": "二次元Isingモデルを用いた臨界点近傍の熱輸送",
      "author": "原野和也、湯川諭",
      "venue": "立教大学",
      "location": "東京都豊島区西池袋",
      "latitude": 35.7305103,
      "longitude": 139.701835,
      "description": "2009年日本物理学会第64回年次大会"
    },
    {
      
      "date": "2009-03-27-30",
      "title": "二成分レナードジョーンズ粒子系による噴霧流シミュレーション",
      "author": "稲岡創、湯川諭、島田尚、伊藤伸泰",
      "venue": "立教大学",
      "location": "東京都豊島区西池袋",
      "latitude": 35.7305103,
      "longitude": 139.701835,
      "description": "2009年日本物理学会第64回年次大会"
    },
    {
      
      "date": "2009-09-25-28",
      "title": "熱伝導状態におけるミクロブラウン運動とソーレ効果",
      "author": "湯川諭、島田尚、伊藤伸泰、小串典子",
      "venue": "熊本大学黒髪キャンパス",
      "location": "熊本県熊本市中央区黒髪",
      "latitude": 32.815025,
      "longitude": 130.7252118,
      "description": "2009年日本物理学会秋季大会"
    },
    {
      
      "date": "2009-09-25-28",
      "title": "斜め衝突による破壊シミュレーション",
      "author": "山本敦志、湯川諭",
      "venue": "熊本大学黒髪キャンパス",
      "location": "熊本県熊本市中央区黒髪",
      "latitude": 32.815025,
      "longitude": 130.7252118,
      "description": "2009年日本物理学会秋季大会"
    },
    {
      
      "date": "2009-09-25-28",
      "title": "延性破壊シミュレーションにおける熱力学挙動",
      "author": "岡村諭、山本敦志、湯川諭",
      "venue": "熊本大学黒髪キャンパス",
      "location": "熊本県熊本市中央区黒髪",
      "latitude": 32.815025,
      "longitude": 130.7252118,
      "description": "2009年日本物理学会秋季大会"
    },
    {
      
      "date": "2010-03-20-23",
      "title": "2成分レナードジョーンズ粒子系の噴霧流-ネットワーク流転移",
      "author": "稲岡創、湯川諭、伊藤伸泰",
      "venue": "岡山大学津島キャンパス",
      "location": "岡山市北区",
      "latitude": 34.6857329,
      "longitude": 133.9161379,
      "description": "2010年日本物理学会第65回年次大会"
    },
    {
      
      "date": "2010-09-23-26",
      "title": "2成分レナードジョーンズ粒子系による爆発粒の流動様式",
      "author": "稲岡創、湯川諭、伊藤伸泰",
      "venue": "大阪府立大学中百舌鳥キャンパス",
      "location": "大阪府堺市 中区学園町",
      "latitude": 34.545471,
      "longitude": 135.5046577,
      "description": "2010年日本物理学会秋季大会"
    },
    {
      
      "date": "2010-09-23-26",
      "title": "クリープ破壊における温度効果",
      "author": "山本敦志、Ferenc Kun、湯川諭",
      "venue": "大阪府立大学中百舌鳥キャンパス",
      "location": "大阪府堺市 中区学園町",
      "latitude": 34.545471,
      "longitude": 135.5046577,
      "description": "2010年日本物理学会秋季大会"
    },
    {
      
      "date": "2011-03-25-28",
      "title": "体積収縮による破壊",
      "author": "湯川諭",
      "venue": "新潟大学五十嵐キャンパス",
      "location": "新潟県新潟市西区五十嵐",
      "latitude":  37.867713,
      "longitude": 138.9397037,
      "description": "2011年日本物理学会第66回年次大会 (東日本大震災によりキャンセル)"
    },
    {
      
      "date": "2011-03-25-28",
      "title": "クリープ破壊現象の寿命の解析",
      "author": "山本敦志、Ferenc Kun、湯川諭",
      "venue": "新潟大学五十嵐キャンパス",
      "location": "新潟県新潟市西区五十嵐",
      "latitude":  37.867713,
      "longitude": 138.9397037,
      "description": "2011年日本物理学会第66回年次大会 (東日本大震災によりキャンセル)"
    },
    {
      
      "date": "2011-03-25-28",
      "title": "レナードジョーンズ粒子系による爆発流のスケーリング関係",
      "author": "稲岡創、湯川諭、伊藤伸泰",
      "venue": "新潟大学五十嵐キャンパス",
      "location": "新潟県新潟市西区五十嵐",
      "latitude":  37.867713,
      "longitude": 138.9397037,
      "description": "2011年日本物理学会第66回年次大会 (東日本大震災によりキャンセル)"
    },
    {
      
      "date": "2011-09-21-24",
      "title": "温度勾配のある系での界面の運動の研究",
      "author": "山本敦志、湯川諭",
      "venue": "富山大学五福キャンパス",
      "location": "富山県富山市五福",
      "latitude": 36.6993446,
      "longitude": 137.1839494,
      "description": "2011年日本物理学会秋季大会"
    },
    {
      
      "date": "2011-09-21-24",
      "title": "体積収縮による破壊のダイナミクス",
      "author": "湯川諭",
      "venue": "富山大学五福キャンパス",
      "location": "富山県富山市五福",
      "latitude": 36.6993446,
      "longitude": 137.1839494,
      "description": "2011年日本物理学会秋季大会"
    },
    {
      
      "date": "2011-09-21-24",
      "title": "SPH法を用いた乾燥破壊シミュレーションとその統計的性質",
      "author": "伊藤伸一、湯川諭",
      "venue": "富山大学五福キャンパス",
      "location": "富山県富山市五福",
      "latitude": 36.6993446,
      "longitude": 137.1839494,
      "description": "2011年日本物理学会秋季大会"
    },
    {
      
      "date": "2011-09-21-24",
      "title": "構造ガラスにおけるエイジング効果のMDシミュレーション",
      "author": "岡村諭、吉野元、湯川諭",
      "venue": "富山大学五福キャンパス",
      "location": "富山県富山市五福",
      "latitude": 36.6993446,
      "longitude": 137.1839494,
      "description": "2011年日本物理学会秋季大会"
    },
    {
      
      "date": "2012-03-24-27",
      "title": "ジャミング転移点近傍における有限温度応力緩和",
      "author": "岡村諭、吉野元、湯川諭",
      "venue": "関西学院大学西宮上ヶ原キャンパス",
      "location": " 兵庫県西宮市上ケ原一番町",
      "latitude": 34.7687748,
      "longitude": 135.346679,
      "description": "2012年日本物理学会第67回年次大会"
    },
    {
      
      "date": "2012-03-24-27",
      "title": "近接次数に依存した相互作用を持つ群れモデルのシミュレーション",
      "author": "佐光政人、湯川諭",
      "venue": "関西学院大学西宮上ヶ原キャンパス",
      "location": " 兵庫県西宮市上ケ原一番町",
      "latitude": 34.7687748,
      "longitude": 135.346679,
      "description": "2012年日本物理学会第67回年次大会"
    },
    {
      
      "date": "2012-03-24-27",
      "title": "SPH法乾燥破壊モデルの解析とその統計的性質",
      "author": "伊藤伸一、湯川諭",
      "venue": "関西学院大学西宮上ヶ原キャンパス",
      "location": " 兵庫県西宮市上ケ原一番町",
      "latitude": 34.7687748,
      "longitude": 135.346679,
      "description": "2012年日本物理学会第67回年次大会"
    },
    {
      
      "date": "2012-09-18-21",
      "title": "群れモデルのシミュレーションにおけるゆらぎと応答",
      "author": "佐光政人、湯川諭",
      "venue": "横浜国立大学常盤台キャンパス",
      "location": "神奈川県横浜市保土ケ谷区常盤台",
      "latitude": 35.4746584,
      "longitude": 139.5859526,
      "description": "2012年日本物理学会秋季大会"
    },
    {
      
      "date": "2012-09-18-21",
      "title": "乾燥破壊パターンの動的スケーリングの確率モデルによる解析",
      "author": "伊藤伸一、湯川諭",
      "venue": "横浜国立大学常盤台キャンパス",
      "location": "神奈川県横浜市保土ケ谷区常盤台",
      "latitude": 35.4746584,
      "longitude": 139.5859526,
      "description": "2012年日本物理学会秋季大会"
    },
    {
      
      "date": "2013-03-26-29",
      "title": "群モデルのシミュレーションにおけるゆらぎと応答II",
      "author": "佐光政人、湯川諭",
      "venue": "広島大学東広島キャンパス",
      "location": "広島県東広島市鏡山",
      "latitude": 34.4031274,
      "longitude": 132.712714,
      "description": "2013年日本物理学会第68回年次大会"
    },
    {
      
      "date": "2013-03-26-29",
      "title": "乾燥破壊パターンの動的スケーリングの確率モデルによる解析II",
      "author": "伊藤伸一、湯川諭",
      "venue": "広島大学東広島キャンパス",
      "location": "広島県東広島市鏡山",
      "latitude": 34.4031274,
      "longitude": 132.712714,
      "description": "2013年日本物理学会第68回年次大会"
    },
    {
      
      "date": "2013-09-25-28",
      "title": "バネ質点モデルにおける乾燥破壊パターンの乾燥過程依存性",
      "author": "伊藤伸一、湯川諭",
      "venue": "徳島大学常三島キャンパス",
      "location": "徳島市南常三島町",
      "latitude": 34.0783209,
      "longitude": 134.5586018,
      "description": "2013年日本物理学会秋季大会"
    },
    {
      
      "date": "2014-03-27-30",
      "title": "収縮破壊における破片分布の確率モデルによる解析",
      "author": "伊藤伸一、湯川諭",
      "venue": "東海大学湘南キャンパス",
      "location": "神奈川県平塚市北金目",
      "latitude": 35.3608465,
      "longitude": 139.2702946,
      "description": "2014年日本物理学会第69回年次大会"
    },
    {
      
      "date": "2016-09-13-16",
      "title": "日本国内の河川ネットワークの角度分布",
      "author": "原賢二、湯川諭",
      "venue": "金沢大学角間キャンパス",
      "location": "石川県金沢市角間町",
      "latitude": 36.5459897,
      "longitude": 136.7065438,
      "description": "2016年日本物理学会秋季大会"
    },
    {
      
      "date": "2017-09-21-24",
      "title": "乾燥収縮破壊の破片形状依存性と統計的モデリング",
      "author": "伊藤伸一、湯川諭",
      "venue": "岩手大学上田キャンパス",
      "location": "岩手県盛岡市上田",
      "latitude": 39.7157031,
      "longitude": 141.1382829,
      "description": "2017年日本物理学会秋季大会"
    },
    {
      
      "date": "2018-03-22-25",
      "title": "生態系ネットワークモデルの侵入種数に対する構造の安定性",
      "author": "池田光夢、湯川諭",
      "venue": "東京理科大学野田キャンパス",
      "location": "千葉県野田市山崎",
      "latitude": 35.919796,
      "longitude": 139.9082389,
      "description": "2018年日本物理学会第73回年次大会"
    },
    {
      
      "date": "2018-03-22-25",
      "title": "フェーズフィールド法に基づく乾燥亀裂シミュレーションとその統計的性質",
      "author": "伊藤伸一、湯川諭",
      "venue": "東京理科大学野田キャンパス",
      "location": "千葉県野田市山崎",
      "latitude": 35.919796,
      "longitude": 139.9082389,
      "description": "2018年日本物理学会第73回年次大会"
    },
    {
      "date": "2018-03-22-25",
      "title": "河川ネットワークにおける合流角度分布とDLAモデルによる解析",
      "author": "湯川諭、鳥海篤、高谷慧、渡辺壮流",
      "venue": "東京理科大学野田キャンパス",
      "location": "千葉県野田市山崎",
      "latitude": 35.919796,
      "longitude": 139.9082389,
      "description": "2018年日本物理学会第73回年次大会"
    },
    {
      "date": "2018-09-09-12",
      "title": "乾燥破壊現象の確率モデル",
      "author": "湯川諭",
      "venue": "同志社大学京田辺キャンパス",
      "location": "京田辺市多々羅都谷",
      "latitude": 34.8024294,
      "longitude": 135.769505,
      "description": "2018年日本物理学会秋季大会"
    }
  ]
}
